,Place,city,County,lat,lon,cordinates,Location,_id
0,Pagere Beach,Goa,India,15.9249226,73.5593803,"('15.9249226', '73.5593803')","Pagere Beach,Goa,India",90001583354934686724132816548353747220
1,Kalavi Beach,Goa,India,15.9074468,73.5890539959039,"('15.9074468', '73.5890539959039')","Kalavi Beach,Goa,India",291554551979307657898362231581867752670
2,Kondura Beach,Goa,India,15.88956555,73.59928764177509,"('15.88956555', '73.5992876417751')","Kondura Beach,Goa,India",115958079388094116446367894400009415269
3,Ubhdanda Beach,Goa,India,15.87623375,73.60590214897701,"('15.87623375', '73.605902148977')","Ubhdanda Beach,Goa,India",334237836680224956875982285179607614836
4,Mochemad Beach,Goa,India,15.79834,73.65235,"('15.79834', '73.65235')","Mochemad Beach,Goa,India",148975849998549704841647027920735909284
5,Paradise Beach,Goa,India,43.3506268,-73.67984009999998,"('43.3506268', '-73.6798401')","Paradise Beach,Goa,India",35704140338987876208257473208844130725
6,Bhogave/Kolwel Beach,Goa,India,15.95445,73.5025025876531,"('15.95445', '73.5025025876531')","Bhogave/Kolwel Beach,Goa,India",169204454198061571772548943440338585317
7,Chiwla Beach,Goa,India,16.06602685,73.463704927988,"('16.06602685', '73.463704927988')","Chiwla Beach,Goa,India",254198779384266246332443445699698342089
8,Beach Near Vijaydurg,Goa,India,16.541456099999998,73.314605441418,"('16.5414561', '73.314605441418')","Beach Near Vijaydurg,Goa,India",243267990237770882864102907034385071519
9,Beach Near Vijaydurg,Goa,India,16.541456099999998,73.314605441418,"('16.5414561', '73.314605441418')","Beach Near Vijaydurg,Goa,India",248980907083283929501973537251350772859
10,Apaiwadi Beach,Goa,India,16.2333565,73.4225388192198,"('16.2333565', '73.4225388192198')","Apaiwadi Beach,Goa,India",33920794245718041967215213491807050071
11,Dhamale Beach,Goa,India,16.552026,73.3226802683523,"('16.552026', '73.3226802683523')","Dhamale Beach,Goa,India",27851441448613965639669095013045516551
12,Beach Near Vijaydurg,Goa,India,16.541456099999998,73.314605441418,"('16.5414561', '73.314605441418')","Beach Near Vijaydurg,Goa,India",242250550424318991901936105388803404492
13,Colva Beach,Goa,India,15.2850095,73.9108680914518,"('15.2850095', '73.9108680914518')","Colva Beach,Goa,India",248996453131353569751601957728353301655
14,Baga Beach,Goa,India,15.557476,73.7511029148699,"('15.557476', '73.7511029148699')","Baga Beach,Goa,India",90552021967284083470855013795241453380
15,Arossim Beach,Goa,India,15.3351328,73.8929125,"('15.3351328', '73.8929125')","Arossim Beach,Goa,India",167615758562293440234236393036441457766
16,Sernabatim Beach,Goa,India,15.263724599999998,73.9169329,"('15.2637246', '73.9169329')","Sernabatim Beach,Goa,India",272800170959756800332457040774700662867
17,Mandrem Beach,Goa,India,15.6665495,73.7144983,"('15.6665495', '73.7144983')","Mandrem Beach,Goa,India",24945000269665423707000669903460341251
18,Agonda Sunset Beach,Goa,India,15.0370919,73.989366,"('15.0370919', '73.989366')","Agonda Sunset Beach,Goa,India",9372620744209287419591685095823295691
19,Cansaulim Beach,Goa,India,15.35483515,73.8839305443846,"('15.35483515', '73.8839305443846')","Cansaulim Beach,Goa,India",77616041593622886590198839195197234314
20,Utorda Beach,Goa,India,15.3196353,73.898934,"('15.3196353', '73.898934')","Utorda Beach,Goa,India",231054782233383151309469433225030685121
21,Velsao Beach,Goa,India,15.354467,73.8839713,"('15.354467', '73.8839713')","Velsao Beach,Goa,India",325461522617736392268343052334800422725
22,Fatrade Beach,Goa,India,15.2079045,73.9326021,"('15.2079045', '73.9326021')","Fatrade Beach,Goa,India",117885154741158885026173675692189077506
23,Varca Beach,Goa,India,15.2321443,73.9259238,"('15.2321443', '73.9259238')","Varca Beach,Goa,India",26828343528897249645180396144089230744
24,Betalbatim Beach,Goa,India,15.2931923,73.90774520000002,"('15.2931923', '73.9077452')","Betalbatim Beach,Goa,India",6974595900762181759054792263751131869
25,Zalor Beach,Goa,India,15.2006619,73.93451379999998,"('15.2006619', '73.9345138')","Zalor Beach,Goa,India",67926837076165495121972325930852141396
26,Lobo's Beach,Goa,India,15.5283634,73.760014,"('15.5283634', '73.760014')","Lobo's Beach,Goa,India",157312013457692607292361614225821403151
27,Beach Queen,Goa,India,15.5474384,73.75471999999998,"('15.5474384', '73.75472')","Beach Queen,Goa,India",97105300939833164619604475487971008336
28,Sunset Beach,Goa,India,33.7179231,-118.0706056,"('33.7179231', '-118.0706056')","Sunset Beach,Goa,India",77440531809717450525141605150330554845
29,CKF Beach,Goa,India,15.4245405,73.89109,"('15.4245405', '73.89109')","CKF Beach,Goa,India",269391154348794786765066452970814217521
30,Nuem Beach,Goa,India,15.112057,73.935524,"('15.112057', '73.935524')","Nuem Beach,Goa,India",133350368934387963445203478753467846358
31,Calangute Beach,Goa,India,15.54265255,73.7556325938762,"('15.54265255', '73.7556325938762')","Calangute Beach,Goa,India",328167266646342439092824811362882791737
32,Colva Beach Circle,Goa,India,15.2765302,73.91454949999998,"('15.2765302', '73.9145495')","Colva Beach Circle,Goa,India",84130971479722683067968574902775566912
33,Colva Beach Tavern,Goa,India,15.2772392,73.92088340000002,"('15.2772392', '73.9208834')","Colva Beach Tavern,Goa,India",157813873127895369187999060768233882445
34,Lucky Star Beach Sack,Goa,India,15.6393021,73.7200615,"('15.6393021', '73.7200615')","Lucky Star Beach Sack,Goa,India",87217570692675484102858149207807831198
35,BETTY'S Beach Shade,Goa,India,15.1592496,73.9448353,"('15.1592496', '73.9448353')","BETTY'S Beach Shade,Goa,India",132416867863446846596840504920232297006
36,Tiara Fiesta Beach Cottages Morjim,Goa,India,15.6227699,73.731923,"('15.6227699', '73.731923')","Tiara Fiesta Beach Cottages Morjim,Goa,India",106142607376557434285963377803598105049
37,Candolim Beach,Goa,India,15.5179016,73.7628157311448,"('15.5179016', '73.7628157311448')","Candolim Beach,Goa,India",115550828027322593294209699514169325500
38,Calangute Beach,Goa,India,15.54265255,73.7556325938762,"('15.54265255', '73.7556325938762')","Calangute Beach,Goa,India",76770132230724117009377289029290042612
39,Siridao Beach,Goa,India,15.4309011,73.8620418,"('15.4309011', '73.8620418')","Siridao Beach,Goa,India",258906056769952536174061139242227496503
40,My Beach Holiday,Goa,India,15.599067000000002,73.7425775,"('15.599067', '73.7425775')","My Beach Holiday,Goa,India",57461953763061890595820109055836352320
41,Pash Beach Arcade,Goa,India,15.2609238,73.929291,"('15.2609238', '73.929291')","Pash Beach Arcade,Goa,India",337529590352048856757094299612604577803
42,Rocky Beach,Goa,India,42.86542,-79.13083,"('42.86542', '-79.13083')","Rocky Beach,Goa,India",6045749569822863432524709936738267698
43,Bogmalo Beach,Goa,India,15.36951635,73.8341883309508,"('15.36951635', '73.8341883309508')","Bogmalo Beach,Goa,India",244561319888946003827913780803319496572
44,Agonda Beach,Goa,India,15.03116485,73.9909064615255,"('15.03116485', '73.9909064615255')","Agonda Beach,Goa,India",77964426568458778845057582855271212029
45,Miramar Beach,Goa,India,30.374367,-86.3585578,"('30.374367', '-86.3585578')","Miramar Beach,Goa,India",160867905326017122302079607974795317819
46,Marivel Beach,Goa,India,15.45585225,73.79800962058341,"('15.45585225', '73.7980096205834')","Marivel Beach,Goa,India",162985699584033117455349538012649135809
47,Hawaii Beach,Goa,India,15.4547363,73.80430039488309,"('15.4547363', '73.8043003948831')","Hawaii Beach,Goa,India",271765775170364214760918065899228014052
48,Ozran Beach,Goa,India,15.59387405,73.734467735577,"('15.59387405', '73.734467735577')","Ozran Beach,Goa,India",207125126315036709642825076684914541182
49,Big Vagator Beach,Goa,India,15.600350699999998,73.7335394310053,"('15.6003507', '73.7335394310053')","Big Vagator Beach,Goa,India",162940082034981178903224989121142565237
50,Anjuna Beach,Goa,India,15.57442965,73.7406635466313,"('15.57442965', '73.7406635466313')","Anjuna Beach,Goa,India",320990376576619634785671965505571318518
51,Chapora Beach,Goa,India,15.6061723,73.73297836236159,"('15.6061723', '73.7329783623616')","Chapora Beach,Goa,India",168221520023871291291801335358327676014
52,Aguada Beach,Goa,India,15.49789245,73.7663840168944,"('15.49789245', '73.7663840168944')","Aguada Beach,Goa,India",193647757972321430381693909706994984624
53,Aguada Beach,Goa,India,15.49789245,73.7663840168944,"('15.49789245', '73.7663840168944')","Aguada Beach,Goa,India",316122093679465998101350276039103300105
54,Agonda Beach,Goa,India,15.03116485,73.9909064615255,"('15.03116485', '73.9909064615255')","Agonda Beach,Goa,India",33507993746863134521228236541778549399
55,Patnam Beach,Goa,India,14.99710825,74.03382930569009,"('14.99710825', '74.0338293056901')","Patnam Beach,Goa,India",87689894720728006904668599629742640300
56,Rajbag Beach,Goa,India,14.98904155,74.0374453333017,"('14.98904155', '74.0374453333017')","Rajbag Beach,Goa,India",151647680546639724587003769250636280345
57,Coco Beach,Goa,India,13.5246839,120.9632741,"('13.5246839', '120.9632741')","Coco Beach,Goa,India",18365485128894283039396266259469252882
58,Morjim Beach,Goa,India,15.6226214,73.7302296202458,"('15.6226214', '73.7302296202458')","Morjim Beach,Goa,India",233286790075970981815503322196504372660
59,Ashvem Beach,Goa,India,15.65173325,73.71584674520821,"('15.65173325', '73.7158467452082')","Ashvem Beach,Goa,India",288057796836821092567109822698467036363
60,Golden Beach road,Goa,India,45.0379777,-79.36785479999998,"('45.0379777', '-79.3678548')","Golden Beach road,Goa,India",83364880321365927973946993785055809915
61,Beach parking,Goa,India,14.5676188,120.9919628,"('14.5676188', '120.9919628')","Beach parking,Goa,India",243897564843796379830190423393985921502
62,Rabindranath Tagore Beach,Goa,India,14.8163513,74.1262407968414,"('14.8163513', '74.1262407968414')","Rabindranath Tagore Beach,Goa,India",229524674855771120791284320948014481202
63,Wagh (Tiger) Arambol Beach,Goa,India,15.69804575,73.6973088294134,"('15.69804575', '73.6973088294134')","Wagh (Tiger) Arambol Beach,Goa,India",25896976057385554405391510399382439186
64,Mandrem Beach,Goa,India,15.6665495,73.7144983,"('15.6665495', '73.7144983')","Mandrem Beach,Goa,India",288722943019060386329113891782134622453
65,Harmal Beach,Goa,India,15.67806525,73.7054108518672,"('15.67806525', '73.7054108518672')","Harmal Beach,Goa,India",291204064842483695475143450270716416259
66,Marjoda Beach,Goa,India,15.32090865,73.8984576502209,"('15.32090865', '73.8984576502209')","Marjoda Beach,Goa,India",109244311921527641015074541760909261377
67,Chiwla Beach,Goa,India,16.06602685,73.463704927988,"('16.06602685', '73.463704927988')","Chiwla Beach,Goa,India",211017043544267696726361100831345885981
68,Kolamb Beach,Goa,India,16.0757346,73.4651979535623,"('16.0757346', '73.4651979535623')","Kolamb Beach,Goa,India",117402434687942702376118111567504536595
69,Apaiwadi Beach,Goa,India,16.2333565,73.4225388192198,"('16.2333565', '73.4225388192198')","Apaiwadi Beach,Goa,India",183126294283859937528245046870775326688
70,Keundla Beach,Goa,India,16.209657399999998,73.4280045476399,"('16.2096574', '73.4280045476399')","Keundla Beach,Goa,India",122960058903925273072468659346064265741
71,Dagarewadi Beach,Goa,India,16.2925209,73.40643837395841,"('16.2925209', '73.4064383739584')","Dagarewadi Beach,Goa,India",169417225168630882925648293603787318475
72,Cola Beach,Goa,India,15.0592525,73.9701511159334,"('15.0592525', '73.9701511159334')","Cola Beach,Goa,India",313043615515828264564975578500273710282
73,Talpona Beach,Goa,India,14.978087099999998,74.0421062872562,"('14.9780871', '74.0421062872562')","Talpona Beach,Goa,India",37756697217117322877285045960110215745
74,Galgibaga Beach,Goa,India,14.9658348,74.04655181334951,"('14.9658348', '74.0465518133495')","Galgibaga Beach,Goa,India",49797196122130657761804473274593791165
75,Bambolim Beach,Goa,India,15.44984775,73.8518603828045,"('15.44984775', '73.8518603828045')","Bambolim Beach,Goa,India",43983536181601403628639833466481257710
76,Siridao Beach,Goa,India,15.4309011,73.8620418,"('15.4309011', '73.8620418')","Siridao Beach,Goa,India",238039313240269621600513505304872128125
77,Caranzalem Beach,Goa,India,15.46486885,73.80375424267649,"('15.46486885', '73.8037542426765')","Caranzalem Beach,Goa,India",314270741637480339678794100782622527893
78,CocoBeach Access,Goa,India,15.4990859,73.7860165,"('15.4990859', '73.7860165')","CocoBeach Access,Goa,India",213131841234335522899009960237236877901
79,Candolim Beach,Goa,India,15.5179016,73.7628157311448,"('15.5179016', '73.7628157311448')","Candolim Beach,Goa,India",109490612435876279753025273391428866208
80,Colva Beach,Goa,India,15.2850095,73.9108680914518,"('15.2850095', '73.9108680914518')","Colva Beach,Goa,India",273992365133190396481108767063261782474
81,Benaulim Beach,Goa,India,15.2529693,73.9202157399507,"('15.2529693', '73.9202157399507')","Benaulim Beach,Goa,India",285209006596173479416819325437483339179
82,Cavelossim Beach,Goa,India,15.1712335,73.94180025884202,"('15.1712335', '73.941800258842')","Cavelossim Beach,Goa,India",126989929691604435205109897696675933009
83,Varca Beach,Goa,India,15.2321443,73.9259238,"('15.2321443', '73.9259238')","Varca Beach,Goa,India",337253136699375343089134793714681925309
84,Dias Beach,Goa,India,15.4534172,73.8016183843235,"('15.4534172', '73.8016183843235')","Dias Beach,Goa,India",79679260239134409858283628255069240649
85,Paradise Beach,Goa,India,43.3506268,-73.67984009999998,"('43.3506268', '-73.6798401')","Paradise Beach,Goa,India",239253351556169678235102843495337733877
86,Butterfly Beach,Goa,India,34.4176512,-119.649194526371,"('34.4176512', '-119.649194526371')","Butterfly Beach,Goa,India",231182434568667060119847231777949903540
87,Morjem Beach,Goa,India,15.6190884,73.7519061269604,"('15.6190884', '73.7519061269604')","Morjem Beach,Goa,India",209834039362389241290310427642916550288
88,Big Vagator Beach,Goa,India,15.600350699999998,73.7335394310053,"('15.6003507', '73.7335394310053')","Big Vagator Beach,Goa,India",236382942188608737941312010054374672805
89,Baga Beach,Goa,India,15.557476,73.7511029148699,"('15.557476', '73.7511029148699')","Baga Beach,Goa,India",56078769392144744180041989310299872070
90,Calangute Beach,Goa,India,15.54265255,73.7556325938762,"('15.54265255', '73.7556325938762')","Calangute Beach,Goa,India",78575964216358627198864421254325852413
91,Devbagh Beach,Goa,India,14.8490536,74.1113306094388,"('14.8490536', '74.1113306094388')","Devbagh Beach,Goa,India",131834237156958810407257496541349031378
92,Colomb Beach,Goa,India,15.0022063,74.02831413606759,"('15.0022063', '74.0283141360676')","Colomb Beach,Goa,India",322791185871499646776178283064985584767
93,Palolem Beach,Goa,India,15.0093077,74.0242289973537,"('15.0093077', '74.0242289973537')","Palolem Beach,Goa,India",310166421142487632138660626288932596136
94,Venkateshwara Temple,Goa,India,15.43348055,73.97170777413,"(15.43348055, 73.97170777413)","Venkateshwara Temple, Belgaum - Panaji Highway, Mardol, North Goa, Goa, 403404, भारत",175739488908912529050802953850962534867
95,Temple Pond,Goa,India,15.43330215,73.97312867766699,"(15.43330215, 73.973128677667)","Temple Pond, Belgaum - Panaji Highway, Mardol, North Goa, Goa, 403404, भारत",238517675871924848667041806818753136426
96,Shri Lakshmi Narasimha Temple,Goa,India,15.4330669,73.9726205182159,"(15.4330669, 73.9726205182159)","Shri Lakshmi Narasimha Temple, Belgaum - Panaji Highway, Mardol, North Goa, Goa, 403404, भारत",334328512159876868593575124295919203622
97,Shro Shanteri Temple,Goa,India,15.4401894,73.972484,"(15.4401894, 73.972484)","Shro Shanteri Temple, Belgaum - Panaji Highway, Mardol, North Goa, Goa, 403404, भारत",193526424153438500055377949490058547495
98,Shri Damodar Temple,Goa,India,15.18659525,74.09459962983759,"(15.18659525, 74.0945996298376)","Shri Damodar Temple, Zambaulim, South Goa, Goa, भारत",80991282544777382608789967324813881367
99,Hindu Temple,Goa,India,15.272574,73.9540875,"(15.272574, 73.9540875)","Hindu temple, NH66, Aquem, Fatorda, Margao, South Goa, Goa, 403600, भारत",333328081829619375512108297290980684509
100,Saibaba Temple,Goa,India,15.49473125,73.8256327282623,"(15.49473125, 73.8256327282623)","Saibaba Temple, Nu Road, Patto Centre, Panaji, North Goa, Goa, 403100, भारत",88008101012675036608639119793909451226
101,Mahalakshimi Temple,Goa,India,15.49585555,73.8265887241974,"(15.49585555, 73.8265887241974)","Mahalakshimi Temple, Dr Dada Vaidya Road, Patto Centre, Panaji, North Goa, Goa, 403100, भारत",63651998666325043967843167417401908523
102,Maruti Temple,Goa,India,15.49008125,73.8283255668392,"(15.49008125, 73.8283255668392)","Maruti Temple, Rua 31 de Janeiro, Patto Centre, Panaji, North Goa, Goa, 403100, भारत",125429833561631066555117239380364825508
103,Shri Siddhivinayak Temple,Goa,India,15.56238405,74.01566675,"(15.56238405, 74.01566675)","Shri Siddhivinayak Temple, NH748AA, Sankhali, North Goa, Goa, 403505, भारत",28715124068500354338043479658409945930
104,Radha Krishna Temple,Goa,India,15.5610122,74.0121665959408,"(15.5610122, 74.0121665959408)","Radha Krishna Temple, NH748AA, Sankhali, North Goa, Goa, 403505, भारत",154606187829425040862163821315259767236
105,Bramharastroli Temple,Goa,India,15.5594712,74.0252048,"(15.5594712, 74.0252048)","Bramharastroli Temple, NH748AA, Sankhali, North Goa, Goa, 403505, भारत",81182108361470295820990266252193582462
106,Shri Maruti Temple,Goa,India,15.433705800000002,73.985833627828,"(15.4337058, 73.985833627828)","Shri Maruti Temple, Belgaum - Panaji Highway, Nageshi, Bandora, North Goa, Goa, 403404, भारत",31620767551981916319156457808290345837
107,Shri Bhumika Devi Temple,Goa,India,15.58731485,74.02893245,"(15.58731485, 74.02893245)","Shri Bhumika Devi Temple, NH748AA, Gululem, North Goa, Goa, 403505, भारत",134016888842724968996819424795084273176
108,Shri Betal Temple,Goa,India,15.52600425,74.00275264552191,"(15.52600425, 74.0027526455219)","Shri Betal Temple, Amona Bridge, Amona, North Goa, Goa, 403505, भारत",170796937722201866362270091031017985134
109,Shri Laxminarayan Temple,Goa,India,15.527887,74.00451118785709,"(15.527887, 74.0045111878571)","Shri Laxminarayan Temple, Amona Bridge, Amona, North Goa, Goa, 403505, भारत",209267976718355765144773222746101887702
110,Shri Mahadev Temple,Goa,India,15.53088615,73.9785561670957,"(15.53088615, 73.9785561670957)","Shri Mahadev Temple, Amona Bridge, Amona, North Goa, Goa, 403505, भारत",45459349742804416597829780469656858234
111,Shri Gurudevbharma Temple,Goa,India,15.52576115,73.96883338300921,"(15.52576115, 73.9688333830092)","Shri Gurudevbharma Temple, Amona Bridge, Amona, North Goa, Goa, भारत",191721915044914920149608246767962699187
112,Shri Shantadurga Verlenkarin Temple,Goa,India,15.5124545,73.9595075465843,"(15.5124545, 73.9595075465843)","Shri Shantadurga Verlenkarin Temple, Amona Bridge, Amona, North Goa, Goa, 403110, भारत",311485858646609519179184355175733236215
113,Shri ShantadurgaTalaulikarin Temple,Goa,India,15.512866699999998,73.9594710660473,"(15.5128667, 73.9594710660473)","Shri ShantadurgaTalaulikarin Temple, Amona Bridge, Amona, North Goa, Goa, 403110, भारत",52456223373749153193218352029316014620
114,Shri Hanuman Temple,Goa,India,15.49046305,73.95748975008459,"(15.49046305, 73.9574897500846)","Shri Hanuman Temple, Belgaum - Panaji Highway, Banastarim, North Goa, Goa, 403110, भारत",114214270094449006964490850944539109117
115,Shri Shiv Temple,Goa,India,15.47484915,73.96354529999998,"(15.47484915, 73.9635453)","Shri Shiv Temple, Belgaum - Panaji Highway, Banastarim, North Goa, Goa, 403404, भारत",322004955658144250600172695276767797015
116,Shri Rudreshwar Temple,Goa,India,15.550362,74.02626,"(15.550362, 74.02626)","Shri Rudreshwar Temple, NH748AA, Sankhali, North Goa, Goa, 403505, भारत",261265940275996236110542278139312108065
117,Shri Tirupati Balaji Temple,Goa,India,15.456334,73.9735940498791,"(15.456334, 73.9735940498791)","Shri Tirupati Balaji Temple, Belgaum - Panaji Highway, Mardol, North Goa, Goa, 403404, भारत",6473982940753426946138191939950076767
118,Ajoba Temple,Goa,India,15.5434083,74.03921925,"(15.5434083, 74.03921925)","Ajoba Temple, NH748AA, Sankhali, North Goa, Goa, 403505, भारत",148367498128290203139016989059514206274
119,Shri Gopaleshwar Mahadev Temple,Goa,India,15.5669234,74.003762375,"(15.5669234, 74.003762375)","Shri Gopaleshwar Mahadev Temple, NH748AA, Sankhali, North Goa, Goa, 403505, भारत",23361669675386014463357946386754796037
120,Shri Ravalnath Temple,Goa,India,15.48821955,73.9651125538216,"(15.48821955, 73.9651125538216)","Shri Ravalnath Temple, Belgaum - Panaji Highway, Banastarim, North Goa, Goa, 403404, भारत",277736073312444336256006105081294845035
121,Shri Mahapurush Temple,Goa,India,15.4886375,73.9674658,"(15.4886375, 73.9674658)","Shri Mahapurush Temple, Belgaum - Panaji Highway, Banastarim, North Goa, Goa, 403404, भारत",28761394757736928025283390598520773763
122,Shri Ghadwash Temple,Goa,India,15.5610118,74.0403088006131,"(15.5610118, 74.0403088006131)","Shri Ghadwash Temple, NH748AA, Sankhali, North Goa, Goa, 403505, भारत",184873808612215086430402385048083462130
123,Shri Sateri Devi Temple,Goa,India,15.5645848,74.0432898572664,"(15.5645848, 74.0432898572664)","Shri Sateri Devi Temple, NH748AA, Sankhali, North Goa, Goa, 403505, भारत",328946165437807601147829920045281258990
124,Shri Kelbai Devi Temple,Goa,India,15.56419375,74.04456885,"(15.56419375, 74.04456885)","Shri Kelbai Devi Temple, NH748AA, Sankhali, North Goa, Goa, 403505, भारत",319396700925572510220601624933726886336
125,Dungeshwar Temple,Goa,India,14.98295475,74.03929955,"(14.98295475, 74.03929955)","Dungeshwar Temple, NH66, Talpona, South Goa, Goa, 403702, भारत",280964055856261305402989216942182593751
126,Shree Gurupradeshi Temple,Goa,India,14.9832092,74.0437057918437,"(14.9832092, 74.0437057918437)","Shree Gurupradeshi Temple, NH66, Talpona, South Goa, Goa, 403702, भारत",105434758148575820130337165331156748918
127,Shiva Temple,Goa,India,14.9992587,74.0340890557648,"(14.9992587, 74.0340890557648)","Shiva Temple, NH66, Canacona, South Goa, Goa, 403702, भारत",60643699503291372681057628186027957374
128,Shri Nageshi Temple,Goa,India,15.4074442,73.98362881203909,"(15.4074442, 73.9836288120391)","Shri Nageshi Temple, Ponda Bye Pass, Nageshi, Bandora, Ponda, North Goa, Goa, 403401, भारत",296503641063847300258205039394924309365
129,Shree Mahalaxmi Temple,Goa,India,15.54612935,74.0120932037172,"(15.54612935, 74.0120932037172)","Shree Mahalaxmi Temple, NH748AA, Sankhali, North Goa, Goa, 403505, भारत",152614780272822817213552846864907347869
130,Shri Manguesh Temple,Goa,India,15.4448989,73.9664141576087,"(15.4448989, 73.9664141576087)","Shri Manguesh Temple, Belgaum - Panaji Highway, Boma, North Goa, Goa, 403404, भारत",194613465896003943777781416148052514751
131,Shri Satteri Shantadurga Temple,Goa,India,15.536518,73.98728285,"(15.536518, 73.98728285)","Shri Satteri Shantadurga Temple, Amona Bridge, Amona, North Goa, Goa, 403505, भारत",288188399411403440988569473379235293744
132,Shree Ravalnath Temple,Goa,India,15.53510605,73.9611243537705,"(15.53510605, 73.9611243537705)","Shree Ravalnath Temple, Amona Bridge, Amona, North Goa, Goa, भारत",12864569153465415053138785755042016901
133,Shree Shantadurga Temple,Goa,India,15.53524905,73.9610820974452,"(15.53524905, 73.9610820974452)","Shree Shantadurga Temple, Amona Bridge, Amona, North Goa, Goa, भारत",229421720903718054972149052808833398155
134,Shri Mahalsa Narayani Temple,Goa,India,15.4405142,73.9725877693471,"(15.4405142, 73.9725877693471)","Shri Mahalsa Narayani Temple, Belgaum - Panaji Highway, Mardol, North Goa, Goa, 403404, भारत",30280028345289068661536527470075522433
135,Ranganai Temple,Goa,India,16.0789198,73.8446347,"(16.0789198, 73.8446347)","Ranganai Temple,Goa,India",274842798774620704275589718259518741209
136,Bhadrakali Temple,Goa,India,16.125386600000002,73.9438954,"(16.125386600000002, 73.9438954)","Bhadrakali Temple,Goa,India",3562314836354275651209675175773865255
137,Mauni Maharaj Temple,Goa,India,16.125695800000006,73.9444426,"(16.125695800000003, 73.9444426)","Mauni Maharaj Temple,Goa,India",136453819020855582772098984407577779024
138,Ganesh Temple,Goa,India,16.109132199999998,73.9391265,"(16.109132199999998, 73.9391265)","Ganesh Temple,Goa,India",36674234392132241827719446971273994739
139,Shri Bodgeshwar Temple,Goa,India,15.5845734,73.805936,"(15.5845734, 73.805936)","Shri Bodgeshwar Temple,Goa,India",95191644313787024435259543421218246442
140,Hanuman Temple,Goa,India,15.5910016,73.810142,"(15.5910016, 73.810142)","Hanuman Temple,Goa,India",57440023136720202669944688477859232887
141,Shri Shantadurga Temple,Goa,India,15.513065,73.7698233,"(15.513065, 73.7698233)","Shri Shantadurga Temple,Goa,India",182207245296481415140479488701248704615
142,Siddeshwar Temple,Goa,India,15.601727300000002,73.7438235,"(15.601727300000002, 73.7438235)","Siddeshwar Temple,Goa,India",281615471950224033210954884423928706562
143,Shree Mahamaya Temple,Goa,India,14.8631117,74.135715,"(14.8631117, 74.135715)","Shree Mahamaya Temple,Goa,India",21027450703349538467312337079539121307
144,Shejjeshwar Temple,Goa,India,14.8114796,74.16247790000001,"(14.8114796, 74.16247790000001)","Shejjeshwar Temple,Goa,India",275424082609679387945924967673342084926
145,Temple Garden,Goa,India,15.0033546,74.02872509999997,"(15.0033546, 74.02872509999999)","Temple Garden,Goa,India",94846902514325781990459575115586540046
146,Love Temple,Goa,India,15.6840891,73.7041429,"(15.6840891, 73.7041429)","Love Temple,Goa,India",138781082920318169459532138155713132087
147,Channabaseshwara Temple,Goa,India,15.006314300000001,74.509517,"(15.006314300000001, 74.509517)","Channabaseshwara Temple,Goa,India",220596782156845537242221325288029238257
148,Shree Ramnathi Temple,Goa,India,15.3988816,73.9809862,"(15.3988816, 73.9809862)","Shree Ramnathi Temple,Goa,India",228372785011035549967034528263735757296
149,Gateshwar Temple,Goa,India,15.595030800000002,73.7973954,"(15.595030800000002, 73.7973954)","Gateshwar Temple,Goa,India",51726045482611419448787937303777966733
150,Durga Temple,Goa,India,15.861681400000002,74.5244697,"(15.861681400000002, 74.5244697)","Durga Temple,Goa,India",259321490224458126720279614001578331540
151,Saraswati Temple,Goa,India,15.393346300000001,74.0027502,"(15.393346300000001, 74.0027502)","Saraswati Temple,Goa,India",242692531994324107393212053427501720018
152,Temple,Goa,India,15.496191199999998,73.8265689,"(15.496191199999998, 73.8265689)","Temple,Goa,India",90220490554332337485796579121562782520
153,Shantadurga Temple,Goa,India,15.507970000000002,73.802595,"(15.507970000000002, 73.802595)","Shantadurga Temple,Goa,India",45721027560444454270422090493228929713
154,Brahmindeo Temple,Goa,India,16.3735131,73.38200340000002,"(16.3735131, 73.38200340000002)","Brahmindeo Temple,Goa,India",25052286868761438464949310447488953420
155,Kunkeswhwar Temple,Goa,India,16.3337856,73.3920838,"(16.3337856, 73.3920838)","Kunkeswhwar Temple,Goa,India",303132019517968184322232146858023826866
156,Temple Tree,Goa,India,15.174968,73.947273,"(15.174968, 73.947273)","Temple Tree,Goa,India",207653500846984508634374818113406265500
157,Shri Shantadurga Chamundeshwari Kudtari Mahamaya Temple,Goa,India,15.228570999999999,74.05411,"(15.228570999999999, 74.05411)","Shri Shantadurga Chamundeshwari Kudtari Mahamaya Temple,Goa,India",239110584807491264837604120640005230117
158,Shanta Durga Temple,Goa,India,15.508026999999998,73.803223,"(15.508026999999998, 73.803223)","Shanta Durga Temple,Goa,India",263278327369523831610216564582985496734
159,Sateri Temple,Goa,India,15.417420000000002,74.189026,"(15.417420000000002, 74.189026)","Sateri Temple,Goa,India",225469114465036122698321781599098812792
160,Shankar Parvati Temple,Goa,India,15.396455,73.9971,"(15.396455, 73.9971)","Shankar Parvati Temple,Goa,India",255219803254120102653557251942040335432
161,Shiv Temple,Goa,India,15.256967999999999,74.060182,"(15.256967999999999, 74.060182)","Shiv Temple,Goa,India",92780609934649974488139556458975109388
162,Shree Krishna Temple,Goa,India,15.194222,73.99347,"(15.194222, 73.99347)","Shree Krishna Temple,Goa,India",243199206717233072048718264442433333282
163,Damodar Temple,Goa,India,15.280375,73.95708499999998,"(15.280375, 73.95708499999999)","Damodar Temple,Goa,India",8022711877327618582010549841921454521
164,Sri Damodar Temple,Goa,India,15.276260999999998,73.95700040000001,"(15.276260999999998, 73.95700040000001)","Sri Damodar Temple,Goa,India",53733243045779136753588783913130755367
165,Shri Sateri Temple,Goa,India,15.267667000000001,74.08405,"(15.267667000000001, 74.08405)","Shri Sateri Temple,Goa,India",271705779896894460812140285625212634458
166,Shri Someshwara Temple,Goa,India,15.335714300000001,74.7530617,"(15.335714300000001, 74.7530617)","Shri Someshwara Temple,Goa,India",287590870620376124913263661689306365550
167,Bhraman Dev Temple,Goa,India,15.632515900000001,73.7666115,"(15.632515900000001, 73.7666115)","Bhraman Dev Temple,Goa,India",202068650442825823770020447113725489259
168,Milroc Temple Towers,Goa,India,15.4882206,73.86373640000002,"(15.4882206, 73.86373640000001)","Milroc Temple Towers,Goa,India",248676531802430927752127848729560887301
169,Shri Shantadurga Chamundeshwari Temple,Goa,India,15.290657699999999,74.0197488,"(15.290657699999999, 74.0197488)","Shri Shantadurga Chamundeshwari Temple,Goa,India",306804777916809740130984310819687133602
170,Maule Temple,Goa,India,15.715949599999998,73.7886188,"(15.715949599999998, 73.7886188)","Maule Temple,Goa,India",176611847731880865962253888097906833516
171,Sai Baba Temple,Goa,India,15.561829099999999,74.0102964,"(15.561829099999999, 74.0102964)","Sai Baba Temple,Goa,India",103536722775447048542990521936952435777
172,Temple Park morjim,Goa,India,15.6362797,73.7397903,"(15.6362797, 73.7397903)","Temple Park morjim,Goa,India",312053531270348535542041677616710450513
173,Temple Park,Goa,India,15.636443599999998,73.7399975,"(15.636443599999998, 73.7399975)","Temple Park,Goa,India",197610793081968468647952198443684207758
174,Dattatraya Temple,Goa,India,15.335558800000001,74.11617240000002,"(15.335558800000001, 74.11617240000001)","Dattatraya Temple,Goa,India",155279452692127987491296382071013921812
175,Rudreshwar Temple,Goa,India,15.493555800000001,73.8211579,"(15.493555800000001, 73.8211579)","Rudreshwar Temple,Goa,India",123088036465610683831565205513731747534
